{"type": "FeatureCollection", "features": [{"type": "Feature", "properties": {"name": "Lake Baikal", "category": "cultural_landscapes", "icon": "icon-cultural_landscapes", "fame": 3}, "geometry": {"type": "Point", "coordinates": [108.00472222, 53.30277778]}}, {"type": "Feature", "properties": {"name": "Curonian Spit", "category": "built_archaeological", "icon": "icon-built_archaeological", "fame": 3}, "geometry": {"type": "Point", "coordinates": [20.970833333, 55.274444444]}}, {"type": "Feature", "properties": {"name": "Curonian Spit", "category": "built_archaeological", "icon": "icon-built_archaeological", "fame": 3}, "geometry": {"type": "Point", "coordinates": [20.970833333, 55.274444444]}}, {"type": "Feature", "properties": {"name": "Golden Mountains of Altai", "category": "cultural_landscapes", "icon": "icon-cultural_landscapes", "fame": 2}, "geometry": {"type": "Point", "coordinates": [86.0, 50.466666666]}}, {"type": "Feature", "properties": {"name": "Dessau-Wörlitz Garden Realm", "category": "art_symbolic", "icon": "icon-art_symbolic", "fame": 2}, "geometry": {"type": "Point", "coordinates": [12.2814, 51.8636]}}, {"type": "Feature", "properties": {"name": "Delos", "category": "built_archaeological", "icon": "icon-built_archaeological", "fame": 3}, "geometry": {"type": "Point", "coordinates": [25.27122, 37.39121]}}, {"type": "Feature", "properties": {"name": "Struve Geodetic Arc", "category": "engineering_industry", "icon": "icon-engineering_industry", "fame": 3}, "geometry": {"type": "Point", "coordinates": [25.649444444, 52.289444444]}}, {"type": "Feature", "properties": {"name": "Struve Geodetic Arc", "category": "engineering_industry", "icon": "icon-engineering_industry", "fame": 3}, "geometry": {"type": "Point", "coordinates": [25.649444444, 52.289444444]}}, {"type": "Feature", "properties": {"name": "Struve Geodetic Arc", "category": "engineering_industry", "icon": "icon-engineering_industry", "fame": 3}, "geometry": {"type": "Point", "coordinates": [25.649444444, 52.289444444]}}, {"type": "Feature", "properties": {"name": "Struve Geodetic Arc", "category": "engineering_industry", "icon": "icon-engineering_industry", "fame": 3}, "geometry": {"type": "Point", "coordinates": [25.649444444, 52.289444444]}}, {"type": "Feature", "properties": {"name": "Struve Geodetic Arc", "category": "engineering_industry", "icon": "icon-engineering_industry", "fame": 3}, "geometry": {"type": "Point", "coordinates": [25.649444444, 52.289444444]}}, {"type": "Feature", "properties": {"name": "Struve Geodetic Arc", "category": "engineering_industry", "icon": "icon-engineering_industry", "fame": 3}, "geometry": {"type": "Point", "coordinates": [25.649444444, 52.289444444]}}, {"type": "Feature", "properties": {"name": "Struve Geodetic Arc", "category": "engineering_industry", "icon": "icon-engineering_industry", "fame": 3}, "geometry": {"type": "Point", "coordinates": [25.649444444, 52.289444444]}}, {"type": "Feature", "properties": {"name": "Struve Geodetic Arc", "category": "engineering_industry", "icon": "icon-engineering_industry", "fame": 3}, "geometry": {"type": "Point", "coordinates": [25.649444444, 52.289444444]}}, {"type": "Feature", "properties": {"name": "Struve Geodetic Arc", "category": "engineering_industry", "icon": "icon-engineering_industry", "fame": 3}, "geometry": {"type": "Point", "coordinates": [25.649444444, 52.289444444]}}, {"type": "Feature", "properties": {"name": "Struve Geodetic Arc", "category": "engineering_industry", "icon": "icon-engineering_industry", "fame": 3}, "geometry": {"type": "Point", "coordinates": [25.649444444, 52.289444444]}}, {"type": "Feature", "properties": {"name": "Solovetsky Islands", "category": "cultural_landscapes", "icon": "icon-cultural_landscapes", "fame": 2}, "geometry": {"type": "Point", "coordinates": [35.710556, 65.024444]}}, {"type": "Feature", "properties": {"name": "Trinity Lavra of St. Sergius", "category": "built_archaeological", "icon": "icon-built_archaeological", "fame": 2}, "geometry": {"type": "Point", "coordinates": [38.13065, 56.31035]}}, {"type": "Feature", "properties": {"name": "Church of the Ascension, Kolomenskoye", "category": "built_archaeological", "icon": "icon-built_archaeological", "fame": 1}, "geometry": {"type": "Point", "coordinates": [37.670833333, 55.667222222]}}, {"type": "Feature", "properties": {"name": "Novodevichy Convent", "category": "built_archaeological", "icon": "icon-built_archaeological", "fame": 2}, "geometry": {"type": "Point", "coordinates": [37.556583333, 55.725972222]}}, {"type": "Feature", "properties": {"name": "Putorana Plateau", "category": "built_archaeological", "icon": "icon-built_archaeological", "fame": 2}, "geometry": {"type": "Point", "coordinates": [93.0, 69.0]}}, {"type": "Feature", "properties": {"name": "Lena Pillars", "category": "built_archaeological", "icon": "icon-built_archaeological", "fame": 2}, "geometry": {"type": "Point", "coordinates": [127.361666666, 61.106944444]}}, {"type": "Feature", "properties": {"name": "Artists' Colony in Darmstadt", "category": "built_archaeological", "icon": "icon-built_archaeological", "fame": 1}, "geometry": {"type": "Point", "coordinates": [8.66650397, 49.875433345]}}, {"type": "Feature", "properties": {"name": "City of Vicenza and the Palladian Villas of the Veneto", "category": "historic_cities", "icon": "icon-historic_cities", "fame": 2}, "geometry": {"type": "Point", "coordinates": [11.55, 45.55]}}, {"type": "Feature", "properties": {"name": "Kizhi Pogost", "category": "built_archaeological", "icon": "icon-built_archaeological", "fame": 2}, "geometry": {"type": "Point", "coordinates": [35.22345, 62.06767]}}, {"type": "Feature", "properties": {"name": "Virgin Komi Forests", "category": "cultural_landscapes", "icon": "icon-cultural_landscapes", "fame": 2}, "geometry": {"type": "Point", "coordinates": [60.15, 65.06666667]}}, {"type": "Feature", "properties": {"name": "Qazan Kremlin", "category": "built_archaeological", "icon": "icon-built_archaeological", "fame": 2}, "geometry": {"type": "Point", "coordinates": [49.10724, 55.797442]}}, {"type": "Feature", "properties": {"name": "Historic Centre of Saint Petersburg and Related Groups of Monuments", "category": "historic_cities", "icon": "icon-historic_cities", "fame": 2}, "geometry": {"type": "Point", "coordinates": [30.315555555, 59.938888888]}}, {"type": "Feature", "properties": {"name": "Historic Centre of Saint Petersburg and Related Groups of Monuments", "category": "historic_cities", "icon": "icon-historic_cities", "fame": 2}, "geometry": {"type": "Point", "coordinates": [30.315555555, 59.938888888]}}, {"type": "Feature", "properties": {"name": "Neolithic flint mines of Spiennes", "category": "engineering_industry", "icon": "icon-engineering_industry", "fame": 2}, "geometry": {"type": "Point", "coordinates": [3.982575, 50.419988888]}}, {"type": "Feature", "properties": {"name": "Old City of Bern", "category": "historic_cities", "icon": "icon-historic_cities", "fame": 2}, "geometry": {"type": "Point", "coordinates": [7.450277777, 46.948055555]}}, {"type": "Feature", "properties": {"name": "Ferapontov Monastery", "category": "built_archaeological", "icon": "icon-built_archaeological", "fame": 2}, "geometry": {"type": "Point", "coordinates": [38.5675, 59.956388888]}}, {"type": "Feature", "properties": {"name": "White Monuments of Vladimir and Suzdal", "category": "built_archaeological", "icon": "icon-built_archaeological", "fame": 2}, "geometry": {"type": "Point", "coordinates": [40.4167, 56.15]}}, {"type": "Feature", "properties": {"name": "Medieval City of Rhodes", "category": "historic_cities", "icon": "icon-historic_cities", "fame": 1}, "geometry": {"type": "Point", "coordinates": [28.226937, 36.443058]}}, {"type": "Feature", "properties": {"name": "Early Christian Necropolis of Pécs", "category": "built_archaeological", "icon": "icon-built_archaeological", "fame": 1}, "geometry": {"type": "Point", "coordinates": [18.227777777, 46.074444444]}}, {"type": "Feature", "properties": {"name": "Historic Monuments of Novgorod and Surroundings", "category": "built_archaeological", "icon": "icon-built_archaeological", "fame": 2}, "geometry": {"type": "Point", "coordinates": [31.28555556, 58.51833333]}}, {"type": "Feature", "properties": {"name": "Major Town Houses of the Architect Victor Horta", "category": "built_archaeological", "icon": "icon-built_archaeological", "fame": 2}, "geometry": {"type": "Point", "coordinates": [4.35, 50.81666667]}}, {"type": "Feature", "properties": {"name": "Decorated Farmhouses of Hälsingland", "category": "built_archaeological", "icon": "icon-built_archaeological", "fame": 2}, "geometry": {"type": "Point", "coordinates": [16.195833333, 61.707222222]}}, {"type": "Feature", "properties": {"name": "Kapova Cave", "category": "built_archaeological", "icon": "icon-built_archaeological", "fame": 2}, "geometry": {"type": "Point", "coordinates": [57.063888888, 53.044444444]}}, {"type": "Feature", "properties": {"name": "World Heritage Dolomites", "category": "built_archaeological", "icon": "icon-built_archaeological", "fame": 1}, "geometry": {"type": "Point", "coordinates": [12.16306, 46.61306]}}, {"type": "Feature", "properties": {"name": "Archaeological Area and the Patriarchal Basilica of Aquileia", "category": "built_archaeological", "icon": "icon-built_archaeological", "fame": 1}, "geometry": {"type": "Point", "coordinates": [13.3675, 45.7683]}}, {"type": "Feature", "properties": {"name": "Astronomical Observatory of the University of Kazan", "category": "built_archaeological", "icon": "icon-built_archaeological", "fame": 1}, "geometry": {"type": "Point", "coordinates": [49.11916667, 55.79083333]}}, {"type": "Feature", "properties": {"name": "historical centre of Yaroslavl", "category": "historic_cities", "icon": "icon-historic_cities", "fame": 1}, "geometry": {"type": "Point", "coordinates": [39.8875, 57.623611]}}, {"type": "Feature", "properties": {"name": "Assumption Cathedral, Sviyazhsk", "category": "built_archaeological", "icon": "icon-built_archaeological", "fame": 1}, "geometry": {"type": "Point", "coordinates": [48.652451, 55.770124]}}, {"type": "Feature", "properties": {"name": "West Norwegian Fjords – Geirangerfjord and Nærøyfjord", "category": "cultural_landscapes", "icon": "icon-cultural_landscapes", "fame": 1}, "geometry": {"type": "Point", "coordinates": [6.977692, 60.965776]}}, {"type": "Feature", "properties": {"name": "Limes Dacicus", "category": "engineering_industry", "icon": "icon-engineering_industry", "fame": 1}, "geometry": {"type": "Point", "coordinates": [23.159411, 47.180789]}}, {"type": "Feature", "properties": {"name": "Mantua and Sabbioneta", "category": "built_archaeological", "icon": "icon-built_archaeological", "fame": 1}, "geometry": {"type": "Point", "coordinates": [10.79444444, 45.15944444]}}, {"type": "Feature", "properties": {"name": "Archaeological Sites of Mycenae and Tiryns", "category": "built_archaeological", "icon": "icon-built_archaeological", "fame": 1}, "geometry": {"type": "Point", "coordinates": [22.75, 37.73333333]}}, {"type": "Feature", "properties": {"name": "Kremlin and Red Square", "category": "built_archaeological", "icon": "icon-built_archaeological", "fame": 1}, "geometry": {"type": "Point", "coordinates": [37.62, 55.75361111]}}, {"type": "Feature", "properties": {"name": "The Historic Centre (Chorá) with the Monastery of Saint-John the Theologian and the Cave of the Apocalypse on the Island of Pátmos", "category": "built_archaeological", "icon": "icon-built_archaeological", "fame": 1}, "geometry": {"type": "Point", "coordinates": [26.55, 37.3]}}, {"type": "Feature", "properties": {"name": "Q18405795", "category": "built_archaeological", "icon": "icon-built_archaeological", "fame": 1}, "geometry": {"type": "Point", "coordinates": [48.295833333, 42.069166666]}}, {"type": "Feature", "properties": {"name": "Champagne hillsides, houses and cellars", "category": "built_archaeological", "icon": "icon-built_archaeological", "fame": 1}, "geometry": {"type": "Point", "coordinates": [3.94611, 49.0775]}}, {"type": "Feature", "properties": {"name": "Old town of Corfu", "category": "historic_cities", "icon": "icon-historic_cities", "fame": 1}, "geometry": {"type": "Point", "coordinates": [19.92193, 39.624658]}}, {"type": "Feature", "properties": {"name": "Bolgar Historical and Archaeological Complex", "category": "built_archaeological", "icon": "icon-built_archaeological", "fame": 1}, "geometry": {"type": "Point", "coordinates": [49.05639, 54.97889]}}, {"type": "Feature", "properties": {"name": "Paphos", "category": "built_archaeological", "icon": "icon-built_archaeological", "fame": 1}, "geometry": {"type": "Point", "coordinates": [32.40556, 34.75833]}}, {"type": "Feature", "properties": {"name": "Viking Age Ring Fortresses", "category": "built_archaeological", "icon": "icon-built_archaeological", "fame": 1}, "geometry": {"type": "Point", "coordinates": [10.389166666, 55.391944444]}}, {"type": "Feature", "properties": {"name": "Viking Age Ring Fortresses", "category": "built_archaeological", "icon": "icon-built_archaeological", "fame": 1}, "geometry": {"type": "Point", "coordinates": [11.265277777, 55.394166666]}}, {"type": "Feature", "properties": {"name": "Viking Age Ring Fortresses", "category": "built_archaeological", "icon": "icon-built_archaeological", "fame": 1}, "geometry": {"type": "Point", "coordinates": [12.121944444, 55.469722222]}}, {"type": "Feature", "properties": {"name": "Viking Age Ring Fortresses", "category": "built_archaeological", "icon": "icon-built_archaeological", "fame": 1}, "geometry": {"type": "Point", "coordinates": [9.770277777, 56.623333333]}}, {"type": "Feature", "properties": {"name": "Viking Age Ring Fortresses", "category": "built_archaeological", "icon": "icon-built_archaeological", "fame": 1}, "geometry": {"type": "Point", "coordinates": [9.254722222, 56.995277777]}}, {"type": "Feature", "properties": {"name": "Wadden Sea", "category": "built_archaeological", "icon": "icon-built_archaeological", "fame": 1}, "geometry": {"type": "Point", "coordinates": [8.556111111, 53.528611111]}}, {"type": "Feature", "properties": {"name": "Wadden Sea", "category": "built_archaeological", "icon": "icon-built_archaeological", "fame": 1}, "geometry": {"type": "Point", "coordinates": [8.556111111, 53.528611111]}}, {"type": "Feature", "properties": {"name": "Wadden Sea", "category": "built_archaeological", "icon": "icon-built_archaeological", "fame": 1}, "geometry": {"type": "Point", "coordinates": [8.556111111, 53.528611111]}}, {"type": "Feature", "properties": {"name": "Volcanoes of Kamchatka", "category": "built_archaeological", "icon": "icon-built_archaeological", "fame": 1}, "geometry": {"type": "Point", "coordinates": [157.8299, 52.0]}}, {"type": "Feature", "properties": {"name": "Volcanoes of Kamchatka", "category": "built_archaeological", "icon": "icon-built_archaeological", "fame": 1}, "geometry": {"type": "Point", "coordinates": [158.83, 53.5]}}, {"type": "Feature", "properties": {"name": "Volcanoes of Kamchatka", "category": "built_archaeological", "icon": "icon-built_archaeological", "fame": 1}, "geometry": {"type": "Point", "coordinates": [157.6699, 55.67]}}, {"type": "Feature", "properties": {"name": "Volcanoes of Kamchatka", "category": "built_archaeological", "icon": "icon-built_archaeological", "fame": 1}, "geometry": {"type": "Point", "coordinates": [160.5403, 54.9253]}}, {"type": "Feature", "properties": {"name": "Volcanoes of Kamchatka", "category": "built_archaeological", "icon": "icon-built_archaeological", "fame": 1}, "geometry": {"type": "Point", "coordinates": [160.5501, 56.1]}}, {"type": "Feature", "properties": {"name": "porticoes of Bologna", "category": "built_archaeological", "icon": "icon-built_archaeological", "fame": 2}, "geometry": {"type": "Point", "coordinates": [11.332777777, 44.491388888]}}, {"type": "Feature", "properties": {"name": "Derbent Mosque", "category": "built_archaeological", "icon": "icon-built_archaeological", "fame": 1}, "geometry": {"type": "Point", "coordinates": [48.279722222, 42.055277777]}}, {"type": "Feature", "properties": {"name": "Church of the Holy All-Savior of Derbent", "category": "built_archaeological", "icon": "icon-built_archaeological", "fame": 1}, "geometry": {"type": "Point", "coordinates": [48.287047, 42.057012]}}, {"type": "Feature", "properties": {"name": "Berlin Modernism Housing Estates", "category": "built_archaeological", "icon": "icon-built_archaeological", "fame": 2}, "geometry": {"type": "Point", "coordinates": [13.45, 52.448333]}}, {"type": "Feature", "properties": {"name": "Bergpark Wilhelmshöhe", "category": "built_archaeological", "icon": "icon-built_archaeological", "fame": 2}, "geometry": {"type": "Point", "coordinates": [9.4, 51.3167]}}, {"type": "Feature", "properties": {"name": "Historic Centre of Porto", "category": "historic_cities", "icon": "icon-historic_cities", "fame": 1}, "geometry": {"type": "Point", "coordinates": [-8.612974, 41.143191]}}, {"type": "Feature", "properties": {"name": "Centro Histórico de Évora", "category": "historic_cities", "icon": "icon-historic_cities", "fame": 1}, "geometry": {"type": "Point", "coordinates": [-7.90777778, 38.57305556]}}, {"type": "Feature", "properties": {"name": "Zona Central da Cidade de Angra do Heroísmo", "category": "built_archaeological", "icon": "icon-built_archaeological", "fame": 1}, "geometry": {"type": "Point", "coordinates": [-27.216667, 38.65]}}, {"type": "Feature", "properties": {"name": "Qazan Kremlin", "category": "built_archaeological", "icon": "icon-built_archaeological", "fame": 2}, "geometry": {"type": "Point", "coordinates": [49.10724, 55.797442]}}, {"type": "Feature", "properties": {"name": "Historic Centre of Brugge", "category": "historic_cities", "icon": "icon-historic_cities", "fame": 1}, "geometry": {"type": "Point", "coordinates": [3.22527, 51.20891]}}, {"type": "Feature", "properties": {"name": "Town Hall and Roland on the Marketplace of Bremen", "category": "built_archaeological", "icon": "icon-built_archaeological", "fame": 1}, "geometry": {"type": "Point", "coordinates": [8.807472222, 53.07597222]}}, {"type": "Feature", "properties": {"name": "Assisi, the Basilica of San Francesco and Other Franciscan Sites", "category": "built_archaeological", "icon": "icon-built_archaeological", "fame": 1}, "geometry": {"type": "Point", "coordinates": [12.62244444, 43.06616667]}}, {"type": "Feature", "properties": {"name": "Stonehenge", "category": "built_archaeological", "icon": "icon-built_archaeological", "fame": 3}, "geometry": {"type": "Point", "coordinates": [-1.826111111, 51.178888888]}}, {"type": "Feature", "properties": {"name": "Cathedral of the Savior in his Epiphany of Zaragoza", "category": "built_archaeological", "icon": "icon-built_archaeological", "fame": 2}, "geometry": {"type": "Point", "coordinates": [-0.87585, 41.65456]}}, {"type": "Feature", "properties": {"name": "Tower of Iglesia de San Salvador", "category": "built_archaeological", "icon": "icon-built_archaeological", "fame": 1}, "geometry": {"type": "Point", "coordinates": [-1.108090767, 40.342095637]}}, {"type": "Feature", "properties": {"name": "Collegiate church of Santa María", "category": "built_archaeological", "icon": "icon-built_archaeological", "fame": 1}, "geometry": {"type": "Point", "coordinates": [-1.645056, 41.354056]}}, {"type": "Feature", "properties": {"name": "Church of St. Thecla", "category": "built_archaeological", "icon": "icon-built_archaeological", "fame": 1}, "geometry": {"type": "Point", "coordinates": [-1.735805555, 41.432972222]}}, {"type": "Feature", "properties": {"name": "Torre de San Martín", "category": "built_archaeological", "icon": "icon-built_archaeological", "fame": 1}, "geometry": {"type": "Point", "coordinates": [-1.10933, 40.3443]}}, {"type": "Feature", "properties": {"name": "Drottningholm Palace", "category": "built_archaeological", "icon": "icon-built_archaeological", "fame": 2}, "geometry": {"type": "Point", "coordinates": [17.886383, 59.321694]}}, {"type": "Feature", "properties": {"name": "Gammelstad Church Town", "category": "built_archaeological", "icon": "icon-built_archaeological", "fame": 2}, "geometry": {"type": "Point", "coordinates": [22.02861, 65.64611]}}, {"type": "Feature", "properties": {"name": "Chinese Pavilion at Drottningholm", "category": "built_archaeological", "icon": "icon-built_archaeological", "fame": 1}, "geometry": {"type": "Point", "coordinates": [17.87861111, 59.31694444]}}, {"type": "Feature", "properties": {"name": "Royal Domain of Drottningholm", "category": "built_archaeological", "icon": "icon-built_archaeological", "fame": 1}, "geometry": {"type": "Point", "coordinates": [17.886380555, 59.321688888]}}, {"type": "Feature", "properties": {"name": "old town of Cáceres", "category": "historic_cities", "icon": "icon-historic_cities", "fame": 1}, "geometry": {"type": "Point", "coordinates": [-6.37, 39.47416667]}}, {"type": "Feature", "properties": {"name": "Archaeological Ensemble of Mérida", "category": "built_archaeological", "icon": "icon-built_archaeological", "fame": 1}, "geometry": {"type": "Point", "coordinates": [-6.33869, 38.91597]}}, {"type": "Feature", "properties": {"name": "Historic City of Toledo", "category": "historic_cities", "icon": "icon-historic_cities", "fame": 1}, "geometry": {"type": "Point", "coordinates": [-4.024613, 39.856901]}}, {"type": "Feature", "properties": {"name": "Upper German-Raetian Limes", "category": "engineering_industry", "icon": "icon-engineering_industry", "fame": 2}, "geometry": {"type": "Point", "coordinates": [9.1575, 49.796388888]}}, {"type": "Feature", "properties": {"name": "Royal Building of Mafra", "category": "built_archaeological", "icon": "icon-built_archaeological", "fame": 1}, "geometry": {"type": "Point", "coordinates": [-9.326395, 38.936922]}}, {"type": "Feature", "properties": {"name": "Beaumont-Hamel Newfoundland Memorial", "category": "built_archaeological", "icon": "icon-built_archaeological", "fame": 1}, "geometry": {"type": "Point", "coordinates": [2.648229, 50.073838]}}, {"type": "Feature", "properties": {"name": "Marceau-Denkmal", "category": "built_archaeological", "icon": "icon-built_archaeological", "fame": 1}, "geometry": {"type": "Point", "coordinates": [7.592, 50.3737]}}, {"type": "Feature", "properties": {"name": "Neuve-Chapelle Indian Memorial", "category": "built_archaeological", "icon": "icon-built_archaeological", "fame": 1}, "geometry": {"type": "Point", "coordinates": [2.77513, 50.575103]}}, {"type": "Feature", "properties": {"name": "Nieuport Memorial", "category": "built_archaeological", "icon": "icon-built_archaeological", "fame": 1}, "geometry": {"type": "Point", "coordinates": [2.75563, 51.13696]}}, {"type": "Feature", "properties": {"name": "Campus de Alcalá de Henares, University of Alcalá", "category": "built_archaeological", "icon": "icon-built_archaeological", "fame": 1}, "geometry": {"type": "Point", "coordinates": [-3.363085438, 40.482902981]}}, {"type": "Feature", "properties": {"name": "Lichfield Crater, Thelus", "category": "built_archaeological", "icon": "icon-built_archaeological", "fame": 1}, "geometry": {"type": "Point", "coordinates": [2.77658, 50.359713]}}, {"type": "Feature", "properties": {"name": "Hypogeum of Ħal Saflieni", "category": "built_archaeological", "icon": "icon-built_archaeological", "fame": 2}, "geometry": {"type": "Point", "coordinates": [14.506883333, 35.869558333]}}, {"type": "Feature", "properties": {"name": "Evaporitic Karst and Caves of Northern Apennines", "category": "built_archaeological", "icon": "icon-built_archaeological", "fame": 1}, "geometry": {"type": "Point", "coordinates": [10.388916666, 44.379944444]}}, {"type": "Feature", "properties": {"name": "Beaumont-Hamel Newfoundland Memorial", "category": "built_archaeological", "icon": "icon-built_archaeological", "fame": 1}, "geometry": {"type": "Point", "coordinates": [2.648229, 50.073838]}}, {"type": "Feature", "properties": {"name": "Antequera Dolmens Site", "category": "built_archaeological", "icon": "icon-built_archaeological", "fame": 2}, "geometry": {"type": "Point", "coordinates": [-4.548055555, 37.023333333]}}, {"type": "Feature", "properties": {"name": "Menin Gate", "category": "built_archaeological", "icon": "icon-built_archaeological", "fame": 1}, "geometry": {"type": "Point", "coordinates": [2.891070409, 50.852053275]}}, {"type": "Feature", "properties": {"name": "Cambrai Memorial to the Missing", "category": "built_archaeological", "icon": "icon-built_archaeological", "fame": 1}, "geometry": {"type": "Point", "coordinates": [3.015277777, 50.136666666]}}, {"type": "Feature", "properties": {"name": "Thiepval Memorial", "category": "built_archaeological", "icon": "icon-built_archaeological", "fame": 1}, "geometry": {"type": "Point", "coordinates": [2.685833333, 50.050555555]}}, {"type": "Feature", "properties": {"name": "V.C. Corner Australian Cemetery and Memorial", "category": "built_archaeological", "icon": "icon-built_archaeological", "fame": 1}, "geometry": {"type": "Point", "coordinates": [2.83367, 50.61957]}}, {"type": "Feature", "properties": {"name": "Delville Wood South African National Memorial", "category": "built_archaeological", "icon": "icon-built_archaeological", "fame": 1}, "geometry": {"type": "Point", "coordinates": [2.812678, 50.024482]}}, {"type": "Feature", "properties": {"name": "Loos Memorial", "category": "built_archaeological", "icon": "icon-built_archaeological", "fame": 1}, "geometry": {"type": "Point", "coordinates": [2.77177, 50.460853]}}, {"type": "Feature", "properties": {"name": "Villers–Bretonneux Australian National Memorial", "category": "built_archaeological", "icon": "icon-built_archaeological", "fame": 1}, "geometry": {"type": "Point", "coordinates": [2.51291, 49.887008]}}, {"type": "Feature", "properties": {"name": "Canadian National Vimy Memorial", "category": "built_archaeological", "icon": "icon-built_archaeological", "fame": 1}, "geometry": {"type": "Point", "coordinates": [2.773611111, 50.379444444]}}, {"type": "Feature", "properties": {"name": "Noyelles-sur-Mer Chinese Memorial", "category": "built_archaeological", "icon": "icon-built_archaeological", "fame": 1}, "geometry": {"type": "Point", "coordinates": [1.722666, 50.186076]}}, {"type": "Feature", "properties": {"name": "Arras Flying Services Memorial", "category": "built_archaeological", "icon": "icon-built_archaeological", "fame": 1}, "geometry": {"type": "Point", "coordinates": [2.760418, 50.286989]}}, {"type": "Feature", "properties": {"name": "Arras Memorial", "category": "built_archaeological", "icon": "icon-built_archaeological", "fame": 1}, "geometry": {"type": "Point", "coordinates": [2.760652, 50.286982]}}, {"type": "Feature", "properties": {"name": "Ploegsteert Memorial to the Missing", "category": "built_archaeological", "icon": "icon-built_archaeological", "fame": 1}, "geometry": {"type": "Point", "coordinates": [2.88208, 50.73767]}}, {"type": "Feature", "properties": {"name": "Neuve-Chapelle Indian Memorial", "category": "built_archaeological", "icon": "icon-built_archaeological", "fame": 1}, "geometry": {"type": "Point", "coordinates": [2.77513, 50.575103]}}, {"type": "Feature", "properties": {"name": "Pozieres Memorial", "category": "built_archaeological", "icon": "icon-built_archaeological", "fame": 1}, "geometry": {"type": "Point", "coordinates": [2.714829, 50.034499]}}, {"type": "Feature", "properties": {"name": "Nieuport Memorial", "category": "built_archaeological", "icon": "icon-built_archaeological", "fame": 1}, "geometry": {"type": "Point", "coordinates": [2.75563, 51.13696]}}, {"type": "Feature", "properties": {"name": "Tyne Cot Memorial", "category": "built_archaeological", "icon": "icon-built_archaeological", "fame": 1}, "geometry": {"type": "Point", "coordinates": [3.00067, 50.88745]}}, {"type": "Feature", "properties": {"name": "Cold Winter Deserts of Turan", "category": "cultural_landscapes", "icon": "icon-cultural_landscapes", "fame": 1}, "geometry": {"type": "Point", "coordinates": [79.034166666, 44.025833333]}}, {"type": "Feature", "properties": {"name": "Cultural Landscape of Kenozero Lake", "category": "cultural_landscapes", "icon": "icon-cultural_landscapes", "fame": 1}, "geometry": {"type": "Point", "coordinates": [38.172611, 61.928]}}, {"type": "Feature", "properties": {"name": "Mount Athos", "category": "built_archaeological", "icon": "icon-built_archaeological", "fame": 1}, "geometry": {"type": "Point", "coordinates": [24.327222222, 40.158333333]}}, {"type": "Feature", "properties": {"name": "Central Sikhote-Alin", "category": "built_archaeological", "icon": "icon-built_archaeological", "fame": 1}, "geometry": {"type": "Point", "coordinates": [136.66111, 46.68333]}}, {"type": "Feature", "properties": {"name": "Landscapes of Dauria", "category": "cultural_landscapes", "icon": "icon-cultural_landscapes", "fame": 1}, "geometry": {"type": "Point", "coordinates": [115.42544, 49.93022]}}, {"type": "Feature", "properties": {"name": "Western Caucasus", "category": "built_archaeological", "icon": "icon-built_archaeological", "fame": 1}, "geometry": {"type": "Point", "coordinates": [40.0, 44.0]}}, {"type": "Feature", "properties": {"name": "Petroglyphs of Lake Onega and the White Sea", "category": "art_symbolic", "icon": "icon-art_symbolic", "fame": 1}, "geometry": {"type": "Point", "coordinates": [36.012639, 61.7299]}}, {"type": "Feature", "properties": {"name": "Churches of the Pskov School of Architecture", "category": "built_archaeological", "icon": "icon-built_archaeological", "fame": 2}, "geometry": {"type": "Point", "coordinates": [28.3286, 57.8072]}}, {"type": "Feature", "properties": {"name": "Kremlin of Suzdal and Cathedral of the Nativity", "category": "built_archaeological", "icon": "icon-built_archaeological", "fame": 1}, "geometry": {"type": "Point", "coordinates": [40.433333333, 56.416666666]}}, {"type": "Feature", "properties": {"name": "Batalha Monastery", "category": "built_archaeological", "icon": "icon-built_archaeological", "fame": 2}, "geometry": {"type": "Point", "coordinates": [-8.826111111, 39.659166666]}}, {"type": "Feature", "properties": {"name": "Jerónimos Monastery", "category": "built_archaeological", "icon": "icon-built_archaeological", "fame": 2}, "geometry": {"type": "Point", "coordinates": [-9.205601, 38.697846]}}, {"type": "Feature", "properties": {"name": "Prehistoric Rock Art Sites in the Côa Valley", "category": "art_symbolic", "icon": "icon-art_symbolic", "fame": 2}, "geometry": {"type": "Point", "coordinates": [-7.11666667, 41.03333333]}}, {"type": "Feature", "properties": {"name": "Alcobaça Monastery", "category": "built_archaeological", "icon": "icon-built_archaeological", "fame": 2}, "geometry": {"type": "Point", "coordinates": [-8.98, 39.548333333]}}, {"type": "Feature", "properties": {"name": "Palace of Mafra", "category": "built_archaeological", "icon": "icon-built_archaeological", "fame": 2}, "geometry": {"type": "Point", "coordinates": [-9.326395, 38.936922]}}, {"type": "Feature", "properties": {"name": "Alto Douro Wine Region", "category": "cultural_landscapes", "icon": "icon-cultural_landscapes", "fame": 2}, "geometry": {"type": "Point", "coordinates": [-7.544216, 41.21145]}}, {"type": "Feature", "properties": {"name": "Alminhas da Ponte", "category": "built_archaeological", "icon": "icon-built_archaeological", "fame": 1}, "geometry": {"type": "Point", "coordinates": [-8.61085556, 41.14074722]}}, {"type": "Feature", "properties": {"name": "Convent of Christ", "category": "built_archaeological", "icon": "icon-built_archaeological", "fame": 2}, "geometry": {"type": "Point", "coordinates": [-8.419258, 39.603636]}}, {"type": "Feature", "properties": {"name": "banks of the Seine", "category": "built_archaeological", "icon": "icon-built_archaeological", "fame": 1}, "geometry": {"type": "Point", "coordinates": [2.35889, 48.85]}}, {"type": "Feature", "properties": {"name": "Kapova Cave", "category": "built_archaeological", "icon": "icon-built_archaeological", "fame": 2}, "geometry": {"type": "Point", "coordinates": [57.063888888, 53.044444444]}}, {"type": "Feature", "properties": {"name": "Cadeia da Relação", "category": "built_archaeological", "icon": "icon-built_archaeological", "fame": 1}, "geometry": {"type": "Point", "coordinates": [-8.615831, 41.144626]}}, {"type": "Feature", "properties": {"name": "Cave of Altacosa", "category": "art_symbolic", "icon": "icon-art_symbolic", "fame": 3}, "geometry": {"type": "Point", "coordinates": [-4.11975, 43.376944444]}}, {"type": "Feature", "properties": {"name": "Cave of Altacosa", "category": "art_symbolic", "icon": "icon-art_symbolic", "fame": 3}, "geometry": {"type": "Point", "coordinates": [-4.11667, 43.38333]}}, {"type": "Feature", "properties": {"name": "Chauvet Cave", "category": "built_archaeological", "icon": "icon-built_archaeological", "fame": 2}, "geometry": {"type": "Point", "coordinates": [4.4161408, 44.3881219]}}, {"type": "Feature", "properties": {"name": "Prehistoric Sites and Decorated Caves of the Vézère Valley", "category": "cultural_landscapes", "icon": "icon-cultural_landscapes", "fame": 2}, "geometry": {"type": "Point", "coordinates": [1.17, 45.0575]}}, {"type": "Feature", "properties": {"name": "Centro Histórico de Évora", "category": "historic_cities", "icon": "icon-historic_cities", "fame": 1}, "geometry": {"type": "Point", "coordinates": [-7.90777778, 38.57305556]}}, {"type": "Feature", "properties": {"name": "Landscape of the Pico Island Vineyard Culture", "category": "cultural_landscapes", "icon": "icon-cultural_landscapes", "fame": 2}, "geometry": {"type": "Point", "coordinates": [-28.54111111, 38.51333333]}}, {"type": "Feature", "properties": {"name": "Bom Jesus do Monte", "category": "built_archaeological", "icon": "icon-built_archaeological", "fame": 2}, "geometry": {"type": "Point", "coordinates": [-8.3775, 41.5546]}}, {"type": "Feature", "properties": {"name": "Historic Centre of Guimarães and Couros Zone", "category": "historic_cities", "icon": "icon-historic_cities", "fame": 1}, "geometry": {"type": "Point", "coordinates": [-8.290838, 41.445157]}}, {"type": "Feature", "properties": {"name": "Centro Histórico de Angra do Heroísmo", "category": "historic_cities", "icon": "icon-historic_cities", "fame": 1}, "geometry": {"type": "Point", "coordinates": [-27.22, 38.655]}}, {"type": "Feature", "properties": {"name": "Historic Centre of Porto", "category": "historic_cities", "icon": "icon-historic_cities", "fame": 1}, "geometry": {"type": "Point", "coordinates": [-8.612974, 41.143191]}}, {"type": "Feature", "properties": {"name": "Cultural Landscape of Sintra", "category": "cultural_landscapes", "icon": "icon-cultural_landscapes", "fame": 1}, "geometry": {"type": "Point", "coordinates": [-9.433823, 38.788388]}}, {"type": "Feature", "properties": {"name": "Garrison Border Town of Elvas and its Fortifications", "category": "built_archaeological", "icon": "icon-built_archaeological", "fame": 1}, "geometry": {"type": "Point", "coordinates": [-7.16333333, 38.88055556]}}, {"type": "Feature", "properties": {"name": "Valmayor V", "category": "built_archaeological", "icon": "icon-built_archaeological", "fame": 1}, "geometry": {"type": "Point", "coordinates": [0.1559, 41.3065]}}, {"type": "Feature", "properties": {"name": "Laurisilva of Madeira", "category": "built_archaeological", "icon": "icon-built_archaeological", "fame": 1}, "geometry": {"type": "Point", "coordinates": [-17.0, 32.76666667]}}, {"type": "Feature", "properties": {"name": "Universidade de Coimbra – Alta e Sofia", "category": "built_archaeological", "icon": "icon-built_archaeological", "fame": 1}, "geometry": {"type": "Point", "coordinates": [-8.425775, 40.20781111]}}, {"type": "Feature", "properties": {"name": "Syracuse and the Rocky Necropolis of Pantalica", "category": "built_archaeological", "icon": "icon-built_archaeological", "fame": 1}, "geometry": {"type": "Point", "coordinates": [15.29306, 37.05944]}}, {"type": "Feature", "properties": {"name": "Old Town of Galle and its Fortifications", "category": "historic_cities", "icon": "icon-historic_cities", "fame": 1}, "geometry": {"type": "Point", "coordinates": [80.21861111, 6.021388889]}}, {"type": "Feature", "properties": {"name": "Sammallahdenmäki", "category": "built_archaeological", "icon": "icon-built_archaeological", "fame": 2}, "geometry": {"type": "Point", "coordinates": [21.7751687, 61.11767375]}}, {"type": "Feature", "properties": {"name": "Rua da Sofia (Coimbra)", "category": "built_archaeological", "icon": "icon-built_archaeological", "fame": 1}, "geometry": {"type": "Point", "coordinates": [-8.430607, 40.212935]}}, {"type": "Feature", "properties": {"name": "Tarnowskie Góry Lead-Silver-Zinc Mine and its Underground Water Management System", "category": "engineering_industry", "icon": "icon-engineering_industry", "fame": 1}, "geometry": {"type": "Point", "coordinates": [18.85123, 50.4427]}}, {"type": "Feature", "properties": {"name": "Couros Zone", "category": "built_archaeological", "icon": "icon-built_archaeological", "fame": 1}, "geometry": {"type": "Point", "coordinates": [-8.293, 41.44]}}, {"type": "Feature", "properties": {"name": "Castra of Gunzenhausen", "category": "built_archaeological", "icon": "icon-built_archaeological", "fame": 1}, "geometry": {"type": "Point", "coordinates": [10.75555556, 49.11277778]}}, {"type": "Feature", "properties": {"name": "Limeskastell Pohl", "category": "engineering_industry", "icon": "icon-engineering_industry", "fame": 1}, "geometry": {"type": "Point", "coordinates": [7.865916666, 50.251944444]}}, {"type": "Feature", "properties": {"name": "Canada do Inferno / Rego da vide", "category": "built_archaeological", "icon": "icon-built_archaeological", "fame": 1}, "geometry": {"type": "Point", "coordinates": [-7.108769, 41.073444]}}, {"type": "Feature", "properties": {"name": "Faia", "category": "built_archaeological", "icon": "icon-built_archaeological", "fame": 1}, "geometry": {"type": "Point", "coordinates": [-7.0853, 40.9339]}}, {"type": "Feature", "properties": {"name": "Faia - Vale Afonsinho", "category": "built_archaeological", "icon": "icon-built_archaeological", "fame": 1}, "geometry": {"type": "Point", "coordinates": [-7.084323, 40.934736]}}, {"type": "Feature", "properties": {"name": "Fonte Frieira", "category": "built_archaeological", "icon": "icon-built_archaeological", "fame": 1}, "geometry": {"type": "Point", "coordinates": [-7.099338, 41.068316]}}, {"type": "Feature", "properties": {"name": "Meijapão", "category": "built_archaeological", "icon": "icon-built_archaeological", "fame": 1}, "geometry": {"type": "Point", "coordinates": [-7.099352, 41.052198]}}, {"type": "Feature", "properties": {"name": "Penascosa", "category": "built_archaeological", "icon": "icon-built_archaeological", "fame": 1}, "geometry": {"type": "Point", "coordinates": [-7.099904, 40.986382]}}, {"type": "Feature", "properties": {"name": "Quinta da Barca", "category": "built_archaeological", "icon": "icon-built_archaeological", "fame": 1}, "geometry": {"type": "Point", "coordinates": [-7.1008, 40.9856]}}, {"type": "Feature", "properties": {"name": "Quinta da Ervamoira", "category": "built_archaeological", "icon": "icon-built_archaeological", "fame": 1}, "geometry": {"type": "Point", "coordinates": [-7.1053, 41.02]}}, {"type": "Feature", "properties": {"name": "Quinta do Fariseu", "category": "built_archaeological", "icon": "icon-built_archaeological", "fame": 1}, "geometry": {"type": "Point", "coordinates": [-7.108801, 41.041117]}}, {"type": "Feature", "properties": {"name": "Ribeira de Piscos / Quinta dos Poios", "category": "built_archaeological", "icon": "icon-built_archaeological", "fame": 1}, "geometry": {"type": "Point", "coordinates": [-7.1169, 41.0181]}}, {"type": "Feature", "properties": {"name": "Ribeirinha", "category": "built_archaeological", "icon": "icon-built_archaeological", "fame": 1}, "geometry": {"type": "Point", "coordinates": [-7.102788, 40.99199]}}, {"type": "Feature", "properties": {"name": "Vale de Figueira / Teixugo", "category": "built_archaeological", "icon": "icon-built_archaeological", "fame": 1}, "geometry": {"type": "Point", "coordinates": [-7.16754, 41.036383]}}, {"type": "Feature", "properties": {"name": "Vale de Moinhos", "category": "built_archaeological", "icon": "icon-built_archaeological", "fame": 1}, "geometry": {"type": "Point", "coordinates": [-7.109336, 41.074741]}}, {"type": "Feature", "properties": {"name": "Vale de Namoradas", "category": "built_archaeological", "icon": "icon-built_archaeological", "fame": 1}, "geometry": {"type": "Point", "coordinates": [-7.0853, 41.0353]}}, {"type": "Feature", "properties": {"name": "Núcleo Arqueológico de Habitat Paleolítico do Salto do Boi/Cardina", "category": "built_archaeological", "icon": "icon-built_archaeological", "fame": 1}, "geometry": {"type": "Point", "coordinates": [-7.099282, 40.980523]}}, {"type": "Feature", "properties": {"name": "Núcleo de arte rupestre da Canada da Moreira", "category": "built_archaeological", "icon": "icon-built_archaeological", "fame": 1}, "geometry": {"type": "Point", "coordinates": [-7.065543, 41.025271]}}, {"type": "Feature", "properties": {"name": "Núcleo de arte rupestre de Vale de Cabrões", "category": "built_archaeological", "icon": "icon-built_archaeological", "fame": 1}, "geometry": {"type": "Point", "coordinates": [-7.115415, 41.09398]}}, {"type": "Feature", "properties": {"name": "Núcleo de arte rupestre da Vermelhosa", "category": "built_archaeological", "icon": "icon-built_archaeological", "fame": 1}, "geometry": {"type": "Point", "coordinates": [-7.100152, 41.084158]}}, {"type": "Feature", "properties": {"name": "Núcleo de arte rupestre da Foz do Côa", "category": "built_archaeological", "icon": "icon-built_archaeological", "fame": 1}, "geometry": {"type": "Point", "coordinates": [-7.101563, 41.085251]}}, {"type": "Feature", "properties": {"name": "Núcleo de arte rupestre do Vale de José Esteves", "category": "built_archaeological", "icon": "icon-built_archaeological", "fame": 1}, "geometry": {"type": "Point", "coordinates": [-7.11731, 41.031437]}}, {"type": "Feature", "properties": {"name": "Núcleo de arte rupestre do Alto da Bulha", "category": "built_archaeological", "icon": "icon-built_archaeological", "fame": 1}, "geometry": {"type": "Point", "coordinates": [-7.107048, 41.005184]}}, {"type": "Feature", "properties": {"name": "Núcleo de arte rupestre da Canada do Amendoal", "category": "built_archaeological", "icon": "icon-built_archaeological", "fame": 1}, "geometry": {"type": "Point", "coordinates": [-7.099086, 41.077983]}}, {"type": "Feature", "properties": {"name": "Núcleo de arte rupestre de Vale do Forno", "category": "built_archaeological", "icon": "icon-built_archaeological", "fame": 1}, "geometry": {"type": "Point", "coordinates": [-7.109308, 41.073183]}}, {"type": "Feature", "properties": {"name": "Zollverein Coal Mine Industrial Complex", "category": "engineering_industry", "icon": "icon-engineering_industry", "fame": 2}, "geometry": {"type": "Point", "coordinates": [7.04408, 51.4865]}}, {"type": "Feature", "properties": {"name": "Verla", "category": "built_archaeological", "icon": "icon-built_archaeological", "fame": 2}, "geometry": {"type": "Point", "coordinates": [26.640016, 61.061992]}}, {"type": "Feature", "properties": {"name": "Grimeton VLF transmitter", "category": "built_archaeological", "icon": "icon-built_archaeological", "fame": 2}, "geometry": {"type": "Point", "coordinates": [12.404417, 57.113983]}}, {"type": "Feature", "properties": {"name": "Zona Central da Cidade de Angra do Heroísmo", "category": "built_archaeological", "icon": "icon-built_archaeological", "fame": 1}, "geometry": {"type": "Point", "coordinates": [-27.216667, 38.65]}}, {"type": "Feature", "properties": {"name": "Mont-Saint-Michel and its Bay", "category": "built_archaeological", "icon": "icon-built_archaeological", "fame": 1}, "geometry": {"type": "Point", "coordinates": [-1.51056, 48.63556]}}, {"type": "Feature", "properties": {"name": "Lednice-Valtice Cultural Landscape", "category": "cultural_landscapes", "icon": "icon-cultural_landscapes", "fame": 2}, "geometry": {"type": "Point", "coordinates": [16.775, 48.7758]}}, {"type": "Feature", "properties": {"name": "Saint Sophia Cathedral", "category": "built_archaeological", "icon": "icon-built_archaeological", "fame": 3}, "geometry": {"type": "Point", "coordinates": [30.514444444, 50.452777777]}}, {"type": "Feature", "properties": {"name": "Warsaw Old Town", "category": "historic_cities", "icon": "icon-historic_cities", "fame": 2}, "geometry": {"type": "Point", "coordinates": [21.012222222, 52.249722222]}}, {"type": "Feature", "properties": {"name": "Malbork Castle", "category": "built_archaeological", "icon": "icon-built_archaeological", "fame": 2}, "geometry": {"type": "Point", "coordinates": [19.027777777, 54.039722222]}}, {"type": "Feature", "properties": {"name": "Centennial Hall", "category": "built_archaeological", "icon": "icon-built_archaeological", "fame": 2}, "geometry": {"type": "Point", "coordinates": [17.077222222, 51.106944444]}}, {"type": "Feature", "properties": {"name": "Visoki Dečani", "category": "built_archaeological", "icon": "icon-built_archaeological", "fame": 2}, "geometry": {"type": "Point", "coordinates": [20.266388888, 42.546944444]}}, {"type": "Feature", "properties": {"name": "Our Lady of Promise", "category": "built_archaeological", "icon": "icon-built_archaeological", "fame": 2}, "geometry": {"type": "Point", "coordinates": [20.735833333, 42.211388888]}}, {"type": "Feature", "properties": {"name": "historical centre of Yaroslavl", "category": "historic_cities", "icon": "icon-historic_cities", "fame": 1}, "geometry": {"type": "Point", "coordinates": [39.8875, 57.623611]}}, {"type": "Feature", "properties": {"name": "Solovetsky Islands", "category": "cultural_landscapes", "icon": "icon-cultural_landscapes", "fame": 2}, "geometry": {"type": "Point", "coordinates": [35.710556, 65.024444]}}, {"type": "Feature", "properties": {"name": "Drottningholm Palace", "category": "built_archaeological", "icon": "icon-built_archaeological", "fame": 2}, "geometry": {"type": "Point", "coordinates": [17.886383, 59.321694]}}, {"type": "Feature", "properties": {"name": "Urnes Stave Church", "category": "built_archaeological", "icon": "icon-built_archaeological", "fame": 2}, "geometry": {"type": "Point", "coordinates": [7.3225, 61.298055555]}}, {"type": "Feature", "properties": {"name": "City of Vicenza and the Palladian Villas of the Veneto", "category": "historic_cities", "icon": "icon-historic_cities", "fame": 2}, "geometry": {"type": "Point", "coordinates": [11.55, 45.55]}}, {"type": "Feature", "properties": {"name": "Euphrasian Basilica", "category": "built_archaeological", "icon": "icon-built_archaeological", "fame": 2}, "geometry": {"type": "Point", "coordinates": [13.593611111, 45.228611111]}}, {"type": "Feature", "properties": {"name": "Gammelstad Church Town", "category": "built_archaeological", "icon": "icon-built_archaeological", "fame": 2}, "geometry": {"type": "Point", "coordinates": [22.02861, 65.64611]}}, {"type": "Feature", "properties": {"name": "Chinese Pavilion at Drottningholm", "category": "built_archaeological", "icon": "icon-built_archaeological", "fame": 1}, "geometry": {"type": "Point", "coordinates": [17.87861111, 59.31694444]}}, {"type": "Feature", "properties": {"name": "Drottningholm Palace Theatre", "category": "built_archaeological", "icon": "icon-built_archaeological", "fame": 1}, "geometry": {"type": "Point", "coordinates": [17.885, 59.32306667]}}, {"type": "Feature", "properties": {"name": "Royal Domain of Drottningholm", "category": "built_archaeological", "icon": "icon-built_archaeological", "fame": 1}, "geometry": {"type": "Point", "coordinates": [17.886380555, 59.321688888]}}, {"type": "Feature", "properties": {"name": "Valmayor V", "category": "built_archaeological", "icon": "icon-built_archaeological", "fame": 1}, "geometry": {"type": "Point", "coordinates": [0.1559, 41.3065]}}, {"type": "Feature", "properties": {"name": "Los Trepadores rock shelter", "category": "built_archaeological", "icon": "icon-built_archaeological", "fame": 1}, "geometry": {"type": "Point", "coordinates": [-0.682777777, 41.016944444]}}, {"type": "Feature", "properties": {"name": "Q131764534", "category": "built_archaeological", "icon": "icon-built_archaeological", "fame": 1}, "geometry": {"type": "Point", "coordinates": [-1.400555555, 40.394722222]}}]}